Nome,Latitude,Longitude
Curitiba,-25.4284,-49.2733
Londrina,-23.3045,-51.1696
Maringá,-23.4205,-51.9333
Ponta Grossa,-25.0916,-50.1665
Cascavel,-24.9578,-53.459
São José dos Pinhais,-25.5314,-49.2033
Foz do Iguaçu,-25.5478,-54.5882

